{
  "type": "FeatureCollection",
  "features": [
    {"type": "Feature", "properties": {"street": "An Lyskirchen", "Nr": "10", "Postagecode": "50676", "neighborhood": "Altstadt-Süd"}, "geometry": {"type": "Point", "coordinates": [6.96260517120156, 50.93314553218258]}},
    {"type": "Feature", "properties": {"street": "Brühler Str.", "Nr": "74", "Postagecode": "50968", "neighborhood": "Bayenthal"}, "geometry": {"type": "Point", "coordinates": [6.958931739705706, 50.9072330253929]}},
    {"type": "Feature", "properties": {"street": "Ossendorfer Weg", "Nr": "5", "Postagecode": "50827", "neighborhood": "Bickendorf"}, "geometry": {"type": "Point", "coordinates": [6.892010310872875, 50.96889767933816]}},
    {"type": "Feature", "properties": {"street": "Escher Str.", "Nr": "304", "Postagecode": "50739", "neighborhood": "Bilderstöckchen"}, "geometry": {"type": "Point", "coordinates": [6.923964997382279, 50.972417045568626]}},
    {"type": "Feature", "properties": {"street": "Bunzlauer Str.", "Nr": "25", "Postagecode": "50858", "neighborhood": "Braunsfeld"}, "geometry": {"type": "Point", "coordinates": [6.837377155052971, 50.936213794952955]}},
    {"type": "Feature", "properties": {"street": "Von-Eltz-Platz", "Nr": "8", "Postagecode": "51109", "neighborhood": "Brück"}, "geometry": {"type": "Point", "coordinates": [7.0525622531989285, 50.948634283930744]}},
    {"type": "Feature", "properties": {"street": "Alte Wipperfürther Str.", "Nr": "53", "Postagecode": "51065", "neighborhood": "Buchforst"}, "geometry": {"type": "Point", "coordinates": [7.016586157469087, 50.95637028138557]}},
    {"type": "Feature", "properties": {"street": "Pariser Platz", "Nr": "1", "Postagecode": "50765", "neighborhood": "Chorweiler"}, "geometry": {"type": "Point", "coordinates": [6.89940453971238, 51.02256704371591]}},
    {"type": "Feature", "properties": {"street": "Kopischstr.", "Nr": "6", "Postagecode": "51069", "neighborhood": "Dellbrück"}, "geometry": {"type": "Point", "coordinates": [7.064686197382461, 50.975721113770234]}},
    {"type": "Feature", "properties": {"street": "Burgstr.", "Nr": "42", "Postagecode": "51103", "neighborhood": "Deutz"}, "geometry": {"type": "Point", "coordinates": [7.023154966688924, 50.935069473073035]}},
    {"type": "Feature", "properties": {"street": "Venloer Str.", "Nr": "429", "Postagecode": "50825", "neighborhood": "Ehrenfeld"}, "geometry": {"type": "Point", "coordinates": [6.912066068544763, 50.95292294636312]}},
    {"type": "Feature", "properties": {"street": "Mühlenstr.", "Nr": "2-6", "Postagecode": "51143", "neighborhood": "Ensen"}, "geometry": {"type": "Point", "coordinates": [7.056690726213337, 50.8804882798388]}},
    {"type": "Feature", "properties": {"street": "Steinmetzstr.", "Nr": "36", "Postagecode": "51103", "neighborhood": "Kalk"}, "geometry": {"type": "Point", "coordinates": [7.009313797380573, 50.94280157579721]}},
    {"type": "Feature", "properties": {"street": "Emmastraße", "Nr": "6", "Postagecode": "50937", "neighborhood": "Klettenberg"}, "geometry": {"type": "Point", "coordinates": [6.927279053197112, 50.91769412948013]}},
    {"type": "Feature", "properties": {"street": "Zülpicher Straße", "Nr": "273b", "Postagecode": "50937", "neighborhood": "Klettenberg"}, "geometry": {"type": "Point", "coordinates": [6.922518524360998, 50.92214102552844]}},
    {"type": "Feature", "properties": {"street": "Longericher Hauptstr.", "Nr": "62", "Postagecode": "50739", "neighborhood": "Lindweiler"}, "geometry": {"type": "Point", "coordinates": [6.9064909532017325, 50.997350003449235]}},
    {"type": "Feature", "properties": {"street": "Brühler Str.", "Nr": "74", "Postagecode": "50968", "neighborhood": "Marienburg"}, "geometry": {"type": "Point", "coordinates": [6.958931739705706, 50.90733450577341]}},
    {"type": "Feature", "properties": {"street": "Berliner Str.", "Nr": "77", "Postagecode": "51063", "neighborhood": "Mülheim"}, "geometry": {"type": "Point", "coordinates": [7.010552866691206, 50.97305876687893]}},
    {"type": "Feature", "properties": {"street": "Rösrather Str.", "Nr": "176", "Postagecode": "51107", "neighborhood": "Neu-Brück"}, "geometry": {"type": "Point", "coordinates": [7.053914941561704, 50.92867376596019]}},
    {"type": "Feature", "properties": {"street": "Hansaring", "Nr": "135", "Postagecode": "50670", "neighborhood": "Neustadt-Nord"}, "geometry": {"type": "Point", "coordinates": [6.954854339708193, 50.9501779221032]}},
    {"type": "Feature", "properties": {"street": "Kartäusergasse", "Nr": "7b", "Postagecode": "50678", "neighborhood": "Neustadt-Süd"}, "geometry": {"type": "Point", "coordinates": [6.955716295524711, 50.92432486344557]}},
    {"type": "Feature", "properties": {"street": "Niehler Str.", "Nr": "252", "Postagecode": "50735", "neighborhood": "Niehl"}, "geometry": {"type": "Point", "coordinates": [6.960374226218627, 50.971882247202274]}},
    {"type": "Feature", "properties": {"street": "Nesselrodestr.", "Nr": "11", "Postagecode": "50735", "neighborhood": "Nippes"}, "geometry": {"type": "Point", "coordinates": [6.963061153200566, 50.977232923624484]}},
    {"type": "Feature", "properties": {"street": "Gocher Straße", "Nr": "11", "Postagecode": "50733", "neighborhood": "Nippes"}, "geometry": {"type": "Point", "coordinates": [6.949449110872626, 50.96502954020675]}},
    {"type": "Feature", "properties": {"street": "Buchheimer Weg", "Nr": "15", "Postagecode": "51107", "neighborhood": "Ostheim"}, "geometry": {"type": "Point", "coordinates": [7.04106555319813, 50.93472279235157]}},
    {"type": "Feature", "properties": {"street": "Rolshoverstr.", "Nr": "588a", "Postagecode": "51105", "neighborhood": "Poll"}, "geometry": {"type": "Point", "coordinates": [6.991648441561038, 50.91677197552082]}},
    {"type": "Feature", "properties": {"street": "Goethestr.", "Nr": "9-11", "Postagecode": "51143", "neighborhood": "Porz-Langel"}, "geometry": {"type": "Point", "coordinates": [7.05984912621357, 50.884621420923786]}},
    {"type": "Feature", "properties": {"street": "Albert-Schweitzer-Str.", "Nr": "3-5", "Postagecode": "50968", "neighborhood": "Raderthal"}, "geometry": {"type": "Point", "coordinates": [6.951003468541859, 50.90343139463838]}},
    {"type": "Feature", "properties": {"street": "Flemingstraße", "Nr": "5", "Postagecode": "50735", "neighborhood": "Riehl"}, "geometry": {"type": "Point", "coordinates": [6.979009624591754, 50.97197366122824]}},
    {"type": "Feature", "properties": {"street": "Georgstraße", "Nr": "2", "Postagecode": "50999", "neighborhood": "Rodenkirchen"}, "geometry": {"type": "Point", "coordinates": [7.032724039703735, 50.87343530711277]}},
    {"type": "Feature", "properties": {"street": "An der Fuhr", "Nr": "5", "Postagecode": "50997", "neighborhood": "Rondorf"}, "geometry": {"type": "Point", "coordinates": [6.92604499737597, 50.863630949331885]}},
    {"type": "Feature", "properties": {"street": "Bunzlauer Str.", "Nr": "25", "Postagecode": "50858", "neighborhood": "Weiden"}, "geometry": {"type": "Point", "coordinates": [6.837302053198206, 50.93620027264425]}}
  ]
}