{
    "type": "FeatureCollection",
    "features": [
      {"type": "Feature", "properties": {"street": "Nikolausplatz", "Nr": "3", "Postagecode": "50937", "neighborhood": "Sülz"}, "geometry": {"type": "Point", "coordinates": [6.927714, 50.918487]}},
      {"type": "Feature", "properties": {"street": "Am Molenkopf", "Nr": "", "Postagecode": "50735", "neighborhood": "Niehl"}, "geometry": {"type": "Point", "coordinates": [6.971452, 50.984399]}},
      {"type": "Feature", "properties": {"street": "Kuhweg", "Nr": "", "Postagecode": "50735", "neighborhood": "Niehl"}, "geometry": {"type": "Point", "coordinates": [6.988940, 50.968585]}},
      {"type": "Feature", "properties": {"street": "Rheinaustraße", "Nr": "", "Postagecode": "50999", "neighborhood": "Sürth"}, "geometry": {"type": "Point", "coordinates": [7.013287, 50.864046]}},
      {"type": "Feature", "properties": {"street": "Schlackstraße", "Nr": "", "Postagecode": "50737", "neighborhood": "Longerich"}, "geometry": {"type": "Point", "coordinates": [6.919045, 50.995054]}},
      {"type": "Feature", "properties": {"street": "Kierberger Straße", "Nr": "", "Postagecode": "50969", "neighborhood": "Zollstock"}, "geometry": {"type": "Point", "coordinates": [6.948674, 50.909697]}},
      {"type": "Feature", "properties": {"street": "Brucknerstraße", "Nr": "", "Postagecode": "50931", "neighborhood": "Lindenthal"}, "geometry": {"type": "Point", "coordinates": [6.917388, 50.933446]}},
      {"type": "Feature", "properties": {"street": "Venloer Str.", "Nr": "65", "Postagecode": "50672", "neighborhood": "Neustadt-Nord"}, "geometry": {"type": "Point", "coordinates": [6.929935, 50.943372]}},
      {"type": "Feature", "properties": {"street": "Weyer Str.", "Nr": "98", "Postagecode": "50676", "neighborhood": "Altstadt-Süd"}, "geometry": {"type": "Point", "coordinates": [6.942690098337234, 50.93085663496549]}},
      {"type": "Feature", "properties": {"street": "Alfred-Schütte-Allee", "Nr": "", "Postagecode": "51105", "neighborhood": "Poll"}, "geometry": {"type": "Point", "coordinates": [6.983107, 50.913124]}},
      {"type": "Feature", "properties": {"street": "Siebengebirgsallee", "Nr": "", "Postagecode": "50939", "neighborhood": "Klettenberg"}, "geometry": {"type": "Point", "coordinates": [6.921160, 50.907756]}},
      {"type": "Feature", "properties": {"street": "Gleueler Straße", "Nr": "", "Postagecode": "50937", "neighborhood": "Lindenthal"}, "geometry": {"type": "Point", "coordinates": [6.895512, 50.914055]}},
      {"type": "Feature", "properties": {"street": "Helmholtzplatz", "Nr": "", "Postagecode": "50825", "neighborhood": "Ehrenfeld"}, "geometry": {"type": "Point", "coordinates": [6.904550, 50.954283]}},
      {"type": "Feature", "properties": {"street": "Kyffhäuserstraße", "Nr": "40", "Postagecode": "50674", "neighborhood": "Altstadt-Süd"}, "geometry": {"type": "Point", "coordinates": [6.937755, 50.928694]}},
      {"type": "Feature", "properties": {"street": "Mauenheimer Straße", "Nr": "28", "Postagecode": "50733", "neighborhood": "Nippes"}, "geometry": {"type": "Point", "coordinates": [6.951899, 50.966109]}},
      {"type": "Feature", "properties": {"street": "Helmholtzplatz", "Nr": "1", "Postagecode": "50825", "neighborhood": "Ehrenfeld"}, "geometry": {"type": "Point", "coordinates": [6.903768, 50.953271]}},
      {"type": "Feature", "properties": {"street": "Riehler Straße", "Nr": "", "Postagecode": "50668", "neighborhood": "Neustadt-Nord"}, "geometry": {"type": "Point", "coordinates": [6.970084, 50.956111]}},
      {"type": "Feature", "properties": {"street": "Teutoburger Straße", "Nr": "17", "Postagecode": "50678", "neighborhood": ""}, "geometry": {"type": "Point", "coordinates": [6.962191, 50.918890]}},
      {"type": "Feature", "properties": {"street": "Lindenstraße", "Nr": "93", "Postagecode": "50674", "neighborhood": "Neustadt-Süd"}, "geometry": {"type": "Point", "coordinates": [6.932968, 50.931948]}},
      {"type": "Feature", "properties": {"street": "Krefelder Straße", "Nr": "12", "Postagecode": "50670", "neighborhood": "Neustadt-Nord"}, "geometry": {"type": "Point", "coordinates": [6.952844, 50.950365]}},
      {"type": "Feature", "properties": {"street": "Darmstädter Straße", "Nr": "1", "Postagecode": "50678", "neighborhood": ""}, "geometry": {"type": "Point", "coordinates": [6.960383, 50.919624]}},
      {"type": "Feature", "properties": {"street": "Am Faulbach", "Nr": "", "Postagecode": "51063", "neighborhood": ""}, "geometry": {"type": "Point", "coordinates": [6.999918, 50.977467]}},
      {"type": "Feature", "properties": {"street": "Marcel-Proust-Promenade", "Nr": "", "Postagecode": "50935", "neighborhood": ""}, "geometry": {"type": "Point", "coordinates": [6.891411, 50.933730]}},
      {"type": "Feature", "properties": {"street": "Aachener Straße", "Nr": "", "Postagecode": "50859", "neighborhood": "Weiden"}, "geometry": {"type": "Point", "coordinates": [6.815820, 50.940123]}},
      {"type": "Feature", "properties": {"street": "Poller Damm", "Nr": "", "Postagecode": "51105", "neighborhood": "Poll"}, "geometry": {"type": "Point", "coordinates": [6.994048, 50.910925]}},
      {"type": "Feature", "properties": {"street": "Siegburger Straße", "Nr": "", "Postagecode": "51105", "neighborhood": "Poll"}, "geometry": {"type": "Point", "coordinates": [6.992286, 50.916288]}},
      {"type": "Feature", "properties": {"street": "Parkgürtel", "Nr": "", "Postagecode": "50739", "neighborhood": "Bilderstöckchen"}, "geometry": {"type": "Point", "coordinates": [6.927034, 50.962257]}},
      {"type": "Feature", "properties": {"street": "Piccoloministraße", "Nr": "", "Postagecode": "51067", "neighborhood": "Holweide"}, "geometry": {"type": "Point", "coordinates": [7.048319, 50.973169]}},
      {"type": "Feature", "properties": {"street": "Weißenburgstraße", "Nr": "", "Postagecode": "50670", "neighborhood": "Neustadt-Nord"}, "geometry": {"type": "Point", "coordinates": [6.956872, 50.954132]}},
      {"type": "Feature", "properties": {"street": "Kardinal-Frings-Straße", "Nr": "1-3", "Postagecode": "50668", "neighborhood": "Altstadt-Nord"}, "geometry": {"type": "Point", "coordinates": [6.952067, 50.944432]}},
      {"type": "Feature", "properties": {"street": "Gotenring", "Nr": "42", "Postagecode": "50679", "neighborhood": "Deutz"}, "geometry": {"type": "Point", "coordinates": [6.976278, 50.933101]}},
      {"type": "Feature", "properties": {"street": "Gotenring", "Nr": "49", "Postagecode": "50679", "neighborhood": "Deutz"}, "geometry": {"type": "Point", "coordinates": [6.976769, 50.932910]}},
      {"type": "Feature", "properties": {"street": "Alter Markt", "Nr": "26", "Postagecode": "50667", "neighborhood": "Altstadt-Süd"}, "geometry": {"type": "Point", "coordinates": [6.960530, 50.938220]}},
      {"type": "Feature", "properties": {"street": "Unter Fettenhennen", "Nr": "2", "Postagecode": "50667", "neighborhood": "Altstadt-Süd"}, "geometry": {"type": "Point", "coordinates": [6.956175, 50.940697]}},
      {"type": "Feature", "properties": {"street": "Komödienstraße", "Nr": "13", "Postagecode": "50667", "neighborhood": "Altstadt-Süd"}, "geometry": {"type": "Point", "coordinates": [6.955282, 50.941574]}},
      {"type": "Feature", "properties": {"street": "Dellbrücker Hauptstraße", "Nr": "201", "Postagecode": "51069", "neighborhood": "Dellbrück"}, "geometry": {"type": "Point", "coordinates": [7.068532, 50.980299]}},
      {"type": "Feature", "properties": {"street": "Waltherstr.", "Nr": "49-51", "Postagecode": "51069", "neighborhood": "Dellbrück"}, "geometry": {"type": "Point", "coordinates": [7.071438, 50.982145]}},
      {"type": "Feature", "properties": {"street": "Wiener Platz", "Nr": "", "Postagecode": "51063", "neighborhood": "Mülheim"}, "geometry": {"type": "Point", "coordinates": [7.005207, 50.961436]}},
      {"type": "Feature", "properties": {"street": "Maternusstraße", "Nr": "6", "Postagecode": "50996", "neighborhood": "Rodenkirchen"}, "geometry": {"type": "Point", "coordinates": [6.994078, 50.893257]}},
      {"type": "Feature", "properties": {"street": "Königswinterstr.", "Nr": "1", "Postagecode": "50939", "neighborhood": "Sülz"}, "geometry": {"type": "Point", "coordinates": [6.931481, 50.914121]}},
      {"type": "Feature", "properties": {"street": "Dürener Str.", "Nr": "145", "Postagecode": "50931", "neighborhood": "Lindenthal"}, "geometry": {"type": "Point", "coordinates": [6.917603, 50.931353]}},
      {"type": "Feature", "properties": {"street": "Bartholomäus-Schink-Str.", "Nr": "2", "Postagecode": "50825", "neighborhood": "Ehrenfeld"}, "geometry": {"type": "Point", "coordinates": [6.917881, 50.952130]}},
      {"type": "Feature", "properties": {"street": "Venloer Straße", "Nr": "535", "Postagecode": "50825", "neighborhood": "Ehrenfeld"}, "geometry": {"type": "Point", "coordinates": [6.905239, 50.955851]}},
      {"type": "Feature", "properties": {"street": "Venloer Str.", "Nr": "410", "Postagecode": "50825", "neighborhood": "Ehrenfeld"}, "geometry": {"type": "Point", "coordinates": [6.912818, 50.952890]}},
      {"type": "Feature", "properties": {"street": "Buttermarkt", "Nr": "15", "Postagecode": "50667", "neighborhood": "Altstadt-Süd"}, "geometry": {"type": "Point", "coordinates": [6.962387, 50.937205]}},
      {"type": "Feature", "properties": {"street": "Geibelstraße", "Nr": "33", "Postagecode": "50931", "neighborhood": "Lindenthal"}, "geometry": {"type": "Point", "coordinates": [6.916872, 50.930662]}},
      {"type": "Feature", "properties": {"street": "Aachener Str.", "Nr": "547", "Postagecode": "50933", "neighborhood": "Lindenthal"}, "geometry": {"type": "Point", "coordinates": [6.897087, 50.937003]}},
      {"type": "Feature", "properties": {"street": "Aachener Str.", "Nr": "527", "Postagecode": "50933", "neighborhood": "Lindenthal"}, "geometry": {"type": "Point", "coordinates": [6.898375, 50.936990]}},
      {"type": "Feature", "properties": {"street": "Elsaßstr.", "Nr": "6", "Postagecode": "50677", "neighborhood": "Neustadt-Süd"}, "geometry": {"type": "Point", "coordinates": [6.959218, 50.919987]}},
      {"type": "Feature", "properties": {"street": "Aggippinawerft", "Nr": "30", "Postagecode": "50678", "neighborhood": "Neustadt-Süd"}, "geometry": {"type": "Point", "coordinates": [6.969666, 50.919010]}},
      {"type": "Feature", "properties": {"street": "Rathenauplatz", "Nr": "", "Postagecode": "50674", "neighborhood": "Neustadt-Süd"}, "geometry": {"type": "Point", "coordinates": [6.935332, 50.931550]}},
      {"type": "Feature", "properties": {"street": "Scarletallee", "Nr": "", "Postagecode": "50735", "neighborhood": "Niehl"}, "geometry": {"type": "Point", "coordinates": [6.928715, 51.013626]}},
      {"type": "Feature", "properties": {"street": "Nordpark", "Nr": "", "Postagecode": "50733", "neighborhood": "Bilderstöckchen"}, "geometry": {"type": "Point", "coordinates": [6.965555, 50.970318]}},
      {"type": "Feature", "properties": {"street": "Yitzhak-Rabin-Platz", "Nr": "", "Postagecode": "50674", "neighborhood": "Neustadt-Süd"}, "geometry": {"type": "Point", "coordinates": [6.938849, 50.932885]}},
      {"type": "Feature", "properties": {"street": "Marienberger Weg", "Nr": "17b", "Postagecode": "50767", "neighborhood": "Lindweiler"}, "geometry": {"type": "Point", "coordinates": [6.889691, 51.002572]}},
      {"type": "Feature", "properties": {"street": "Dillenburger Straße", "Nr": "", "Postagecode": "51105", "neighborhood": "Kalk"}, "geometry": {"type": "Point", "coordinates": [6.998186, 50.935435]}},
      {"type": "Feature", "properties": {"street": "Peter-Baum-Weg", "Nr": "", "Postagecode": "51069", "neighborhood": "Mülheim"}, "geometry": {"type": "Point", "coordinates": [7.060359, 50.995150]}},
      {"type": "Feature", "properties": {"street": "Heppenheimer Str.", "Nr": "7", "Postagecode": "51107", "neighborhood": "Kalk"}, "geometry": {"type": "Point", "coordinates": [7.044359, 50.927673]}},
      {"type": "Feature", "properties": {"street": "Mülheimer Freiheit", "Nr": "54", "Postagecode": "51063", "neighborhood": "Mülheim"}, "geometry": {"type": "Point", "coordinates": [6.9997005610136, 50.96440606482958]}},
      {"type": "Feature", "properties": {"street": "Gut Leidenhausen", "Nr": "", "Postagecode": "51147", "neighborhood": "Porz"}, "geometry": {"type": "Point", "coordinates": [7.092570, 50.893022]}},
      {"type": "Feature", "properties": {"street": "Frankfurter Str.", "Nr": "641", "Postagecode": "51145", "neighborhood": "Porz"}, "geometry": {"type": "Point", "coordinates": [7.079493, 50.931350]}},
      {"type": "Feature", "properties": {"street": "An der Groov", "Nr": "", "Postagecode": "51143", "neighborhood": "Porz"}, "geometry": {"type": "Point", "coordinates": [7.041953, 50.870671]}},
      {"type": "Feature", "properties": {"street": "Schillingsrotter Straße", "Nr": "", "Postagecode": "50996", "neighborhood": "Rodenkirchen"}, "geometry": {"type": "Point", "coordinates": [6.987267, 50.883484]}},
      {"type": "Feature", "properties": {"street": "Am Treidelweg", "Nr": "", "Postagecode": "50999", "neighborhood": "Rodenkirchen"}, "geometry": {"type": "Point", "coordinates": [7.040349, 50.875437]}},
      {"type": "Feature", "properties": {"street": "Rochusstraße", "Nr": "", "Postagecode": "50827", "neighborhood": "Ehrenfeld"}, "geometry": {"type": "Point", "coordinates": [6.906810, 50.965214]}},
      {"type": "Feature", "properties": {"street": "Hafenstraße", "Nr": "", "Postagecode": "51063", "neighborhood": "Mülheim"}, "geometry": {"type": "Point", "coordinates": [6.992550, 50.958308]}},
      {"type": "Feature", "properties": {"street": "Vogelsanger Straße", "Nr": "", "Postagecode": "50672", "neighborhood": "Innenstadt"}, "geometry": {"type": "Point", "coordinates": [6.929578, 50.941134]}},
      {"type": "Feature", "properties": {"street": "Oberländer Werft", "Nr": "", "Postagecode": "50968", "neighborhood": "Rodenkirchen"}, "geometry": {"type": "Point", "coordinates": [6.978091, 50.906941]}},
      {"type": "Feature", "properties": {"street": "Niehler Damm", "Nr": "", "Postagecode": "50735", "neighborhood": "Nippes"}, "geometry": {"type": "Point", "coordinates": [6.964274, 50.989281]}},
      {"type": "Feature", "properties": {"street": "Marcel-Proust-Promenade", "Nr": "", "Postagecode": "50935", "neighborhood": "Lindenthal"}, "geometry": {"type": "Point", "coordinates": [6.891411, 50.933730]}},
      {"type": "Feature", "properties": {"street": "Volksgartenstraße", "Nr": "", "Postagecode": "50677", "neighborhood": "Innenstadt"}, "geometry": {"type": "Point", "coordinates": [6.949120, 50.921566]}},
      {"type": "Feature", "properties": {"street": "Volksgartenstraße", "Nr": "", "Postagecode": "50677", "neighborhood": "Innenstadt"}, "geometry": {"type": "Point", "coordinates": [6.948995, 50.921538]}},
      {"type": "Feature", "properties": {"street": "Am Faulbach", "Nr": "", "Postagecode": "51036", "neighborhood": "Mülheim"}, "geometry": {"type": "Point", "coordinates": [6.999918, 50.977467]}},
      {"type": "Feature", "properties": {"street": "Bartholomäus-Schink-Straße", "Nr": "", "Postagecode": "50825", "neighborhood": "Ehrenfeld"}, "geometry": {"type": "Point", "coordinates": [6.915802, 50.951835]}},
      {"type": "Feature", "properties": {"street": "Siebachstraße", "Nr": "", "Postagecode": "50733", "neighborhood": "Nippes"}, "geometry": {"type": "Point", "coordinates": [6.950640, 50.957694]}},
      {"type": "Feature", "properties": {"street": "Goethestraße", "Nr": "2", "Postagecode": "50858", "neighborhood": "Lindenthal"}, "geometry": {"type": "Point", "coordinates": [6.834266, 50.942684]}},
      {"type": "Feature", "properties": {"street": "Niehler Kirchweg", "Nr": "", "Postagecode": "50733", "neighborhood": "Nippes"}, "geometry": {"type": "Point", "coordinates": [6.949934, 50.969175]}},
      {"type": "Feature", "properties": {"street": "Aachener Weiher", "Nr": "", "Postagecode": "50674", "neighborhood": "Innenstadt"}, "geometry": {"type": "Point", "coordinates": [6.929296, 50.934116]}},
      {"type": "Feature", "properties": {"street": "Aachener Weiher", "Nr": "", "Postagecode": "50674", "neighborhood": "Innenstadt"}, "geometry": {"type": "Point", "coordinates": [6.926196, 50.933949]}},
      {"type": "Feature", "properties": {"street": "Aachener Weiher", "Nr": "", "Postagecode": "50674", "neighborhood": "Innenstadt"}, "geometry": {"type": "Point", "coordinates": [6.927003, 50.933027]}},
      {"type": "Feature", "properties": {"street": "Rathenauplatz", "Nr": "30", "Postagecode": "50674", "neighborhood": "Innenstadt"}, "geometry": {"type": "Point", "coordinates": [6.936919, 50.931350]}},
      {"type": "Feature", "properties": {"street": "Sachsenbergstraße", "Nr": "1", "Postagecode": "50679", "neighborhood": "Innenstadt"}, "geometry": {"type": "Point", "coordinates": [6.980567, 50.950646]}},
      {"type": "Feature", "properties": {"street": "Deutz-Kalker Str.", "Nr": "52", "Postagecode": "50679", "neighborhood": "Innenstadt"}, "geometry": {"type": "Point", "coordinates": [6.983560, 50.936980]}},
      {"type": "Feature", "properties": {"street": "Maarweg", "Nr": "132", "Postagecode": "50825", "neighborhood": "Ehrenfeld"}, "geometry": {"type": "Point", "coordinates": [6.898611, 50.943814]}},
      {"type": "Feature", "properties": {"street": "Uferstraße", "Nr": "41", "Postagecode": "50996", "neighborhood": "Rodenkirchen"}, "geometry": {"type": "Point", "coordinates": [7.011247, 50.892059]}},
      {"type": "Feature", "properties": {"street": "Uferstraße", "Nr": "24", "Postagecode": "50996", "neighborhood": "Rodenkirchen"}, "geometry": {"type": "Point", "coordinates": [7.004906, 50.892519]}},
      {"type": "Feature", "properties": {"street": "Alfred-Schütte Allee", "Nr": "20", "Postagecode": "50679", "neighborhood": "Innenstadt"}, "geometry": {"type": "Point", "coordinates": [6.977655, 50.919203]}},
      {"type": "Feature", "properties": {"street": "Alfred-Schütte Allee", "Nr": "2", "Postagecode": "50679", "neighborhood": "Innenstadt"}, "geometry": {"type": "Point", "coordinates": [6.972634, 50.926886]}},
      {"type": "Feature", "properties": {"street": "Merheimer Heideweg", "Nr": "", "Postagecode": "51103", "neighborhood": "Kalk"}, "geometry": {"type": "Point", "coordinates": [7.033788, 50.945783]}},
      {"type": "Feature", "properties": {"street": "Merheimer Heideweg", "Nr": "", "Postagecode": "51103", "neighborhood": "Kalk"}, "geometry": {"type": "Point", "coordinates": [7.036792, 50.947831]}},
      {"type": "Feature", "properties": {"street": "Deutzer Werft", "Nr": "", "Postagecode": "50679", "neighborhood": "Innenstadt"}, "geometry": {"type": "Point", "coordinates": [6.968858, 50.936546]}},
      {"type": "Feature", "properties": {"street": "Wiener Platz", "Nr": "2-4", "Postagecode": "51065", "neighborhood": "Mülheim"}, "geometry": {"type": "Point", "coordinates": [7.004526, 50.961319]}},
      {"type": "Feature", "properties": {"street": "Thurner Straße", "Nr": "6", "Postagecode": "51069", "neighborhood": "Mülheim"}, "geometry": {"type": "Point", "coordinates": [7.077360, 50.974648]}},
      {"type": "Feature", "properties": {"street": "Stammheimer Ring", "Nr": "111", "Postagecode": "51061", "neighborhood": "Mülheim"}, "geometry": {"type": "Point", "coordinates": [6.991358, 50.988300]}},
      {"type": "Feature", "properties": {"street": "Hubertusstraße", "Nr": "8", "Postagecode": "51061", "neighborhood": "Mülheim"}, "geometry": {"type": "Point", "coordinates": [6.975536, 51.000496]}},
      {"type": "Feature", "properties": {"street": "Goffineweg", "Nr": "", "Postagecode": "51069", "neighborhood": "Mülheim"}, "geometry": {"type": "Point", "coordinates": [7.028554, 51.007259]}},
      {"type": "Feature", "properties": {"street": "Dellbrücker Mauspfad", "Nr": "125-129", "Postagecode": "51069", "neighborhood": "Mülheim"}, "geometry": {"type": "Point", "coordinates": [7.072811, 50.964432]}},
      {"type": "Feature", "properties": {"street": "Burgwiesenstraße", "Nr": "93", "Postagecode": "51067", "neighborhood": "Mülheim"}, "geometry": {"type": "Point", "coordinates": [7.044167, 50.965122]}},
      {"type": "Feature", "properties": {"street": "Kalk-Mülheimer-Str.", "Nr": "58", "Postagecode": "51103", "neighborhood": "Kalk"}, "geometry": {"type": "Point", "coordinates": [7.001420, 50.939991]}},
      {"type": "Feature", "properties": {"street": "Ottmar-Pohl-Platz", "Nr": "3", "Postagecode": "51105", "neighborhood": "Kalk"}, "geometry": {"type": "Point", "coordinates": [7.003942, 50.935226]}},
      {"type": "Feature", "properties": {"street": "Kalker Hauptstraße", "Nr": "247", "Postagecode": "51103", "neighborhood": "Kalk"}, "geometry": {"type": "Point", "coordinates": [7.008619, 50.939003]}},
      {"type": "Feature", "properties": {"street": "Lehmbacher Weg", "Nr": "", "Postagecode": "51109", "neighborhood": "Kalk"}, "geometry": {"type": "Point", "coordinates": [7.079539, 50.933552]}},
      {"type": "Feature", "properties": {"street": "Kratzweg", "Nr": "34", "Postagecode": "51109", "neighborhood": "Kalk"}, "geometry": {"type": "Point", "coordinates": [7.044158, 50.944546]}},
      {"type": "Feature", "properties": {"street": "Frankfurter Straße", "Nr": "293", "Postagecode": "51103", "neighborhood": "Kalk"}, "geometry": {"type": "Point", "coordinates": [7.023283, 50.947269]}},
      {"type": "Feature", "properties": {"street": "Max-Glomsda-Straße", "Nr": "4", "Postagecode": "51105", "neighborhood": "Porz"}, "geometry": {"type": "Point", "coordinates": [6.996249, 50.923145]}},
      {"type": "Feature", "properties": {"street": "Friedrich-Ebert-Ufer", "Nr": "70", "Postagecode": "51143", "neighborhood": "Porz"}, "geometry": {"type": "Point", "coordinates": [7.054183, 50.885365]}},
      {"type": "Feature", "properties": {"street": "Rolshover Kirchweg", "Nr": "86", "Postagecode": "51105", "neighborhood": "Porz"}, "geometry": {"type": "Point", "coordinates": [6.988319, 50.921517]}},
      {"type": "Feature", "properties": {"street": "Pariser Platz", "Nr": "1", "Postagecode": "50765", "neighborhood": "Chorweiler"}, "geometry": {"type": "Point", "coordinates": [6.898242, 51.021950]}},
      {"type": "Feature", "properties": {"street": "Oranjehofstr.", "Nr": "105", "Postagecode": "50769", "neighborhood": "Chorweiler"}, "geometry": {"type": "Point", "coordinates": [6.892948, 51.021740]}},
      {"type": "Feature", "properties": {"street": "Merianstraße", "Nr": "1", "Postagecode": "50769", "neighborhood": "Chorweiler"}, "geometry": {"type": "Point", "coordinates": [6.911759, 51.028347]}},
      {"type": "Feature", "properties": {"street": "Oranjehofstraße", "Nr": "105", "Postagecode": "50769", "neighborhood": "Chorweiler"}, "geometry": {"type": "Point", "coordinates": [6.929986, 51.021568]}},
      {"type": "Feature", "properties": {"street": "Thujaweg", "Nr": "12", "Postagecode": "50765", "neighborhood": "Chorweiler"}, "geometry": {"type": "Point", "coordinates": [6.878399, 51.018417]}},
      {"type": "Feature", "properties": {"street": "Am Botanischen Garten", "Nr": "", "Postagecode": "50735", "neighborhood": "Nippes"}, "geometry": {"type": "Point", "coordinates": [6.972451, 50.959110]}},
      {"type": "Feature", "properties": {"street": "Neusser Straße", "Nr": "452", "Postagecode": "50733", "neighborhood": "Nippes"}, "geometry": {"type": "Point", "coordinates": [6.951424, 50.972645]}},
      {"type": "Feature", "properties": {"street": "Neusser Str.", "Nr": "295", "Postagecode": "50733", "neighborhood": "Nippes"}, "geometry": {"type": "Point", "coordinates": [6.953536, 50.965307]}},
      {"type": "Feature", "properties": {"street": "Merheimer Straße", "Nr": "463", "Postagecode": "50735", "neighborhood": "Nippes"}, "geometry": {"type": "Point", "coordinates": [6.945670, 50.977375]}},
      {"type": "Feature", "properties": {"street": "Schmiedegasse", "Nr": "58", "Postagecode": "50735", "neighborhood": "Nippes"}, "geometry": {"type": "Point", "coordinates": [6.941526, 50.978767]}},
      {"type": "Feature", "properties": {"street": "Alexander-Petöfi-Platz", "Nr": "", "Postagecode": "50739", "neighborhood": "Nippes"}, "geometry": {"type": "Point", "coordinates": [6.911028, 50.995338]}},
      {"type": "Feature", "properties": {"street": "Schlackstr.", "Nr": "", "Postagecode": "50737", "neighborhood": "Nippes"}, "geometry": {"type": "Point", "coordinates": [6.920048, 50.995084]}},
      {"type": "Feature", "properties": {"street": "Subbelrather Straße", "Nr": "249", "Postagecode": "50825", "neighborhood": "Ehrenfeld"}, "geometry": {"type": "Point", "coordinates": [6.919326, 50.953945]}},
      {"type": "Feature", "properties": {"street": "Venloer Straße", "Nr": "419", "Postagecode": "50825", "neighborhood": "Ehrenfeld"}, "geometry": {"type": "Point", "coordinates": [6.913416, 50.952099]}},
      {"type": "Feature", "properties": {"street": "Oskar-Jäger-Str.", "Nr": "173", "Postagecode": "50825", "neighborhood": "Ehrenfeld"}, "geometry": {"type": "Point", "coordinates": [6.906809, 50.947958]}},
      {"type": "Feature", "properties": {"street": "Piusstr", "Nr": "177", "Postagecode": "50931", "neighborhood": "Ehrenfeld"}, "geometry": {"type": "Point", "coordinates": [6.921949, 50.939384]}},
      {"type": "Feature", "properties": {"street": "Venloer Str.", "Nr": "1132", "Postagecode": "50829", "neighborhood": "Ehrenfeld"}, "geometry": {"type": "Point", "coordinates": [6.878633, 50.968044]}},
      {"type": "Feature", "properties": {"street": "Venloer Straße", "Nr": "1079", "Postagecode": "50829", "neighborhood": "Ehrenfeld"}, "geometry": {"type": "Point", "coordinates": [6.875672, 50.968399]}},
      {"type": "Feature", "properties": {"street": "Stadtwald", "Nr": "", "Postagecode": "50935", "neighborhood": "Lindenthal"}, "geometry": {"type": "Point", "coordinates": [6.903464, 50.931692]}},
      {"type": "Feature", "properties": {"street": "Aachener Straße", "Nr": "220", "Postagecode": "50931", "neighborhood": "Lindenthal"}, "geometry": {"type": "Point", "coordinates": [6.912183, 50.937477]}},
      {"type": "Feature", "properties": {"street": "Albert-Kindle-Straße", "Nr": "36", "Postagecode": "50859", "neighborhood": "Lindenthal"}, "geometry": {"type": "Point", "coordinates": [6.820954, 50.940407]}},
      {"type": "Feature", "properties": {"street": "Aachener Straße", "Nr": "304", "Postagecode": "50931", "neighborhood": "Lindenthal"}, "geometry": {"type": "Point", "coordinates": [6.915958, 50.936981]}},
      {"type": "Feature", "properties": {"street": "Schillingsrotter Straße", "Nr": "38", "Postagecode": "50996", "neighborhood": "Rodenkirchen"}, "geometry": {"type": "Point", "coordinates": [6.992040, 50.889244]}},
      {"type": "Feature", "properties": {"street": "Marktstraße", "Nr": "10", "Postagecode": "50968", "neighborhood": "Rodenkirchen"}, "geometry": {"type": "Point", "coordinates": [6.959113, 50.912724]}},
      {"type": "Feature", "properties": {"street": "Hauptstr.", "Nr": "7", "Postagecode": "50996", "neighborhood": "Rodenkirchen"}, "geometry": {"type": "Point", "coordinates": [6.990847, 50.896710]}},
      {"type": "Feature", "properties": {"street": "Höninger Platz", "Nr": "25", "Postagecode": "50969", "neighborhood": "Rodenkirchen"}, "geometry": {"type": "Point", "coordinates": [6.943883, 50.900669]}},
      {"type": "Feature", "properties": {"street": "Schillingsrotter Straße", "Nr": "100", "Postagecode": "50996", "neighborhood": "Rodenkirchen"}, "geometry": {"type": "Point", "coordinates": [6.987868, 50.883148]}},
      {"type": "Feature", "properties": {"street": "Rathausplatz", "Nr": "2", "Postagecode": "50667", "neighborhood": "Innenstadt"}, "geometry": {"type": "Point", "coordinates": [6.958989, 50.938534]}},
      {"type": "Feature", "properties": {"street": "Rathausplatz", "Nr": "4", "Postagecode": "50667", "neighborhood": "Innenstadt"}, "geometry": {"type": "Point", "coordinates": [6.958989, 50.938534]}},
      {"type": "Feature", "properties": {"street": "Laurenzplatz", "Nr": "1", "Postagecode": "50667", "neighborhood": "Innenstadt"}, "geometry": {"type": "Point", "coordinates": [6.957325, 50.938549]}},
      {"type": "Feature", "properties": {"street": "Josef-Haubrich-Hof", "Nr": "1", "Postagecode": "50676", "neighborhood": "Innenstadt"}, "geometry": {"type": "Point", "coordinates": [6.949366, 50.934361]}},
      {"type": "Feature", "properties": {"street": "Hauptstraße", "Nr": "85", "Postagecode": "50996", "neighborhood": "Rodenkirchen"}, "geometry": {"type": "Point", "coordinates": [6.996971, 50.892204]}},
      {"type": "Feature", "properties": {"street": "Hackhauser Weg", "Nr": "22", "Postagecode": "50769", "neighborhood": "Chorweiler"}, "geometry": {"type": "Point", "coordinates": [6.860061, 51.062656]}},
      {"type": "Feature", "properties": {"street": "Haslacher Weg", "Nr": "23d", "Postagecode": "51063", "neighborhood": "Mülheim"}, "geometry": {"type": "Point", "coordinates": [7.005165, 50.984886]}},
      {"type": "Feature", "properties": {"street": "Chlodwigplatz", "Nr": "28", "Postagecode": "50670", "neighborhood": "Innenstadt"}, "geometry": {"type": "Point", "coordinates": [6.959809, 50.922070]}},
      {"type": "Feature", "properties": {"street": "Am Hof", "Nr": "12-18", "Postagecode": "50667", "neighborhood": "Innenstadt"}, "geometry": {"type": "Point", "coordinates": [6.956963, 50.940175]}},
      {"type": "Feature", "properties": {"street": "Im Zollhafen", "Nr": "24", "Postagecode": "50678", "neighborhood": "Innenstadt"}, "geometry": {"type": "Point", "coordinates": [6.966425, 50.925761]}},
      {"type": "Feature", "properties": {"street": "Bahnhofsvorplatz", "Nr": "1", "Postagecode": "50667", "neighborhood": "Innenstadt"}, "geometry": {"type": "Point", "coordinates": [6.95721437045185, 50.94249453131985]}},
      {"type": "Feature", "properties": {"street": "Auenweg", "Nr": "", "Postagecode": "50679", "neighborhood": "Innenstadt"}, "geometry": {"type": "Point", "coordinates": [6.97511543338878, 50.94793282649932]}},
      {"type": "Feature", "properties": {"street": "Athener Ring", "Nr": "4", "Postagecode": "50765", "neighborhood": "Chorweiler"}, "geometry": {"type": "Point", "coordinates": [6.892948, 51.021740]}},
      {"type": "Feature", "properties": {"street": "Willy-Brandt-Platz", "Nr": "2", "Postagecode": "50679", "neighborhood": "Innenstadt"}, "geometry": {"type": "Point", "coordinates": [6.981931, 50.939142]}}
    ]
  }